[
  {
    "id": "25",
    "title": "KTVF",
    "arcName": "ktvf",
    "lat": "64.811149880",
    "lng": "-147.703297223",
    "img": "",
    "city": "Fairbanks",
    "state": "AK",
    "affiliate": "NBC/ CBS/ MY",
    "dmasize": "202",
    "website": "www.webcenter11.com",
    "timezone": "ALASKA",
    "zip": "99701",
    "logo": "KTVF.png",
    "owner": "gray",
    "popup": "1",
    "bkgColor": "light",
    "hidden": null,
    "arc_site_name": "ktvf"
  },
  {
    "id": "24",
    "title": "KTUU",
    "arcName": "ktuu",
    "lat": "61.185217340",
    "lng": "-149.873886888",
    "img": "",
    "city": "Anchorage",
    "state": "AK",
    "affiliate": "NBC/ TRUECRIME",
    "dmasize": "147",
    "website": "www.alaskasnewssource.com",
    "timezone": "ALASKA",
    "zip": "99503",
    "logo": "KTUU.png",
    "owner": "gray",
    "popup": "1",
    "bkgColor": "light",
    "hidden": null,
    "arc_site_name": "ktuu"
  },
  {
    "id": "113",
    "title": "KMOT",
    "arcName": "kfyr",
    "lat": "48.215191900",
    "lng": "-101.318528000",
    "img": "",
    "city": "Minot",
    "state": "ND",
    "affiliate": "NBC/FOX/ME",
    "dmasize": "146",
    "website": "www.kfyrtv.com",
    "timezone": "CENTRAL",
    "zip": "58701",
    "logo": "KMOT.png",
    "owner": "gray",
    "popup": "1",
    "bkgColor": "light",
    "hidden": null,
    "arc_site_name": ""
  },
  {
    "id": "112",
    "title": "KUMV",
    "arcName": "kfyr",
    "lat": "48.149997200",
    "lng": "-103.621930000",
    "img": "",
    "city": "Williston",
    "state": "ND",
    "affiliate": "NBC/FOX/ME",
    "dmasize": "146",
    "website": "www.kfyrtv.com",
    "timezone": "CENTRAL",
    "zip": "58801",
    "logo": "KUMV.png",
    "owner": "gray",
    "popup": "1",
    "bkgColor": "light",
    "hidden": null,
    "arc_site_name": ""
  },
  {
    "id": "26",
    "title": "KVLY",
    "arcName": "kvly",
    "lat": "47.922546632",
    "lng": "-97.034655342",
    "img": "",
    "city": "Fargo-Valley City",
    "state": "ND",
    "affiliate": "NBC/ CBS/ ME",
    "dmasize": "117",
    "website": "www.valleynewslive.com",
    "timezone": "CENTRAL",
    "zip": "58103",
    "logo": "KVLY.png",
    "owner": "gray",
    "popup": "1",
    "bkgColor": "light",
    "hidden": null,
    "arc_site_name": "kvly"
  },
  {
    "id": "111",
    "title": "KQCD",
    "arcName": "kfyr",
    "lat": "46.905400145",
    "lng": "-102.780283283",
    "img": "",
    "city": "Dickinson",
    "state": "ND",
    "affiliate": "NBC/FOX/ME",
    "dmasize": "146",
    "website": "www.kfyrtv.com",
    "timezone": "CENTRAL",
    "zip": "58601",
    "logo": "KQCD.png",
    "owner": "gray",
    "popup": "1",
    "bkgColor": "light",
    "hidden": null,
    "arc_site_name": ""
  },
  {
    "id": "110",
    "title": "KFYR",
    "arcName": "kfyr",
    "lat": "46.806726090",
    "lng": "-100.786615500",
    "img": "",
    "city": "Bismarck",
    "state": "ND",
    "affiliate": "NBC/FOX/ME",
    "dmasize": "146",
    "website": "www.kfyrtv.com",
    "timezone": "CENTRAL",
    "zip": "58501",
    "logo": "KFYR.png",
    "owner": "gray",
    "popup": "1",
    "bkgColor": "light",
    "hidden": null,
    "arc_site_name": "kfyr"
  },
  {
    "id": "122",
    "title": "KBJR",
    "arcName": "kbjr",
    "lat": "46.784619390",
    "lng": "-92.096185820",
    "img": "",
    "city": "Duluth",
    "state": "MN",
    "affiliate": "NBC/CBS",
    "dmasize": "136",
    "website": "northernnewsnow.com",
    "timezone": "CENTRAL",
    "zip": "55802",
    "logo": "KBJR.png",
    "owner": "gray",
    "popup": "1",
    "bkgColor": "light",
    "hidden": null,
    "arc_site_name": "kbjr"
  },
  {
    "id": "34",
    "title": "WAGM",
    "arcName": "wagm",
    "lat": "46.728484645",
    "lng": "-68.000303290",
    "img": "",
    "city": "Presque Isle",
    "state": "ME",
    "affiliate": "CBS/ FOX",
    "dmasize": "206",
    "website": "www.wagmtv.com",
    "timezone": "EASTERN",
    "zip": "04769",
    "logo": "WAGM.png",
    "owner": "gray",
    "popup": "1",
    "bkgColor": "light",
    "hidden": null,
    "arc_site_name": "wagm"
  },
  {
    "id": "51",
    "title": "WLUC",
    "arcName": "wluc",
    "lat": "46.530391314",
    "lng": "-87.552549024",
    "img": "",
    "city": "Marquette",
    "state": "MI",
    "affiliate": "FOX/ GRIT/ NBC",
    "dmasize": "182",
    "website": "www.uppermichiganssource.com",
    "timezone": "EASTERN",
    "zip": "49866",
    "logo": "WLUC.png",
    "owner": "gray",
    "popup": "1",
    "bkgColor": "light",
    "hidden": null,
    "arc_site_name": "wluc"
  },
  {
    "id": "132",
    "title": "KPTV",
    "arcName": "",
    "lat": "45.526787500",
    "lng": "-122.830485950",
    "img": "",
    "city": "Beaverton",
    "state": "OR",
    "affiliate": "FOX",
    "dmasize": "21",
    "website": "www.kptv.com",
    "timezone": "PACIFIC",
    "zip": "85013",
    "logo": "KPTV.png",
    "owner": "gray",
    "popup": "1",
    "bkgColor": "light",
    "hidden": null,
    "arc_site_name": "kptv"
  },
  {
    "id": "56",
    "title": "WSAW",
    "arcName": "wsaw",
    "lat": "44.946886846",
    "lng": "-89.621986362",
    "img": "",
    "city": "Wausau-Rhinelander",
    "state": "WI",
    "affiliate": "CBS/ FOX/ ME/ MY/ MOVIES",
    "dmasize": "134",
    "website": "www.wsaw.com",
    "timezone": "CENTRAL",
    "zip": "54403",
    "logo": "WSAW.png",
    "owner": "gray",
    "popup": "1",
    "bkgColor": "light",
    "hidden": null,
    "arc_site_name": "wsaw"
  },
  {
    "id": "42",
    "title": "WEAU",
    "arcName": "weau",
    "lat": "44.799682126",
    "lng": "-91.466713091",
    "img": "",
    "city": "Eau Claire-La Crosse",
    "state": "WI",
    "affiliate": "H&I/ ANTENNA/ NBC/ MOVIES",
    "dmasize": "130",
    "website": "www.weau.com",
    "timezone": "CENTRAL",
    "zip": "54701",
    "logo": "WEAU.png",
    "owner": "gray",
    "popup": "1",
    "bkgColor": "light",
    "hidden": null,
    "arc_site_name": "weau"
  },
  {
    "id": "33",
    "title": "WABI",
    "arcName": "wabi",
    "lat": "44.793298803",
    "lng": "-68.837989578",
    "img": "",
    "city": "Bangor",
    "state": "ME",
    "affiliate": "CBS/ CW/ DECADES",
    "dmasize": "155",
    "website": "www.wabi.tv",
    "timezone": "EASTERN",
    "zip": "04401",
    "logo": "WABI.png",
    "owner": "gray",
    "popup": "1",
    "bkgColor": "light",
    "hidden": null,
    "arc_site_name": "wabi"
  },
  {
    "id": "35",
    "title": "WBAY",
    "arcName": "wbay",
    "lat": "44.512621611",
    "lng": "-88.013010170",
    "img": "",
    "city": "Green Bay",
    "state": "WI",
    "affiliate": "ABC/ ION",
    "dmasize": "67",
    "website": "www.wbay.com",
    "timezone": "CENTRAL",
    "zip": "54301",
    "logo": "WBAY.png",
    "owner": "gray",
    "popup": "1",
    "bkgColor": "light",
    "hidden": null,
    "arc_site_name": "wbay"
  },
  {
    "id": "37",
    "title": "WCAX",
    "arcName": "wcax",
    "lat": "44.450413617",
    "lng": "-73.200450165",
    "img": "",
    "city": "Burlington",
    "state": "VT",
    "affiliate": "CBS/ MOVIES/ ION",
    "dmasize": "96",
    "website": "www.wcax.com",
    "timezone": "EASTERN",
    "zip": "05406",
    "logo": "WCAX.png",
    "owner": "gray",
    "popup": "1",
    "bkgColor": "light",
    "hidden": null,
    "arc_site_name": "wcax"
  },
  {
    "id": "107",
    "title": "KEYC",
    "arcName": "keyc",
    "lat": "44.172600542",
    "lng": "-94.048297918",
    "img": "",
    "city": "Mankato",
    "state": "MN",
    "affiliate": "CBS/ FOX",
    "dmasize": "199",
    "website": "www.keyc.com",
    "timezone": "CENTRAL",
    "zip": "56003",
    "logo": "KEYC.png",
    "owner": "gray",
    "popup": "1",
    "bkgColor": "light",
    "hidden": null,
    "arc_site_name": "keyc"
  },
  {
    "id": "124",
    "title": "KTTC",
    "arcName": "kttc",
    "lat": "44.091249420",
    "lng": "-92.509837580",
    "img": "",
    "city": "Rochester-Mason City",
    "state": "MN",
    "affiliate": "NBC/CW",
    "dmasize": "156",
    "website": "www.kttc.com",
    "timezone": "CENTRAL",
    "zip": "55901",
    "logo": "KTTC.png",
    "owner": "gray",
    "popup": "1",
    "bkgColor": "light",
    "hidden": null,
    "arc_site_name": "kttc"
  },
  {
    "id": "20",
    "title": "KOTA",
    "arcName": "kota",
    "lat": "44.066881830",
    "lng": "-103.250196570",
    "img": "",
    "city": "Rapid City",
    "state": "SD",
    "affiliate": "ABC",
    "dmasize": "171",
    "website": "www.kotatv.com",
    "timezone": "MOUNTAIN",
    "zip": "57709",
    "logo": "KOTA.png",
    "owner": "gray",
    "popup": "1",
    "bkgColor": "light",
    "hidden": null,
    "arc_site_name": "kota"
  },
  {
    "id": "5",
    "title": "KEVN",
    "arcName": "kevn",
    "lat": "44.066848027",
    "lng": "-103.250252160",
    "img": "",
    "city": "Rapid City",
    "state": "SD",
    "affiliate": "FOX",
    "dmasize": "172",
    "website": "www.blackhillsfox.com",
    "timezone": "MOUNTAIN",
    "zip": "57709",
    "logo": "KEVN.png",
    "owner": "gray",
    "popup": "1",
    "bkgColor": "light",
    "hidden": null,
    "arc_site_name": "kevn"
  },
  {
    "id": "108",
    "title": "WWNY",
    "arcName": "wwny",
    "lat": "43.974606312",
    "lng": "-75.912257079",
    "img": "",
    "city": "Watertown",
    "state": "NY",
    "affiliate": "CBS/ FOX",
    "dmasize": "178",
    "website": "www.wwnytv.com",
    "timezone": "EASTERN",
    "zip": "13601",
    "logo": "WWNY.png",
    "owner": "gray",
    "popup": "1",
    "bkgColor": "light",
    "hidden": null,
    "arc_site_name": "wwny"
  },
  {
    "id": "21",
    "title": "KSFY",
    "arcName": "ksfy",
    "lat": "43.565915100",
    "lng": "-96.948058900",
    "img": "",
    "city": "Sioux Falls",
    "state": "SD",
    "affiliate": "ABC/ CW/ ME",
    "dmasize": "115",
    "website": "www.dakotanewsnow.com",
    "timezone": "CENTRAL",
    "zip": "57104",
    "logo": "KSFY.png",
    "owner": "gray",
    "popup": "1",
    "bkgColor": "light",
    "hidden": null,
    "arc_site_name": "ksfy"
  },
  {
    "id": "52",
    "title": "WMTV",
    "arcName": "wmtv",
    "lat": "43.051202865",
    "lng": "-89.487001569",
    "img": "",
    "city": "Madison",
    "state": "WI",
    "affiliate": "NBC/ CW/ ANTENNA",
    "dmasize": "86",
    "website": "www.nbc15.com",
    "timezone": "CENTRAL",
    "zip": "53711",
    "logo": "WMTV.png",
    "owner": "gray",
    "popup": "1",
    "bkgColor": "light",
    "hidden": null,
    "arc_site_name": "wmtv"
  },
  {
    "id": "140",
    "title": "WNEM",
    "arcName": "",
    "lat": "43.015609649",
    "lng": "-83.690049431",
    "img": "",
    "city": "Flint",
    "state": "MI",
    "affiliate": "CBS",
    "dmasize": "73",
    "website": "www.wnem.com/",
    "timezone": "EASTERN",
    "zip": "48502",
    "logo": "WNEM.png",
    "owner": "gray",
    "popup": "1",
    "bkgColor": "light",
    "hidden": null,
    "arc_site_name": "wnem"
  },
  {
    "id": "114",
    "title": "KCWY",
    "arcName": "kgwn",
    "lat": "42.850024200",
    "lng": "-106.363438900",
    "img": "",
    "city": "Mills",
    "state": "WY",
    "affiliate": "NBC/ CW",
    "dmasize": "197",
    "website": "www.wyomingnewsnow.tv",
    "timezone": "MOUNTAIN",
    "zip": "82644",
    "logo": "KCWY.png",
    "owner": "gray",
    "popup": "1",
    "bkgColor": "light",
    "hidden": null,
    "arc_site_name": "kcwy"
  },
  {
    "id": "46",
    "title": "WILX",
    "arcName": "wilx",
    "lat": "42.662209861",
    "lng": "-84.548901921",
    "img": "",
    "city": "Lansing",
    "state": "MI",
    "affiliate": "H&I/ NBC/ ANTENNA",
    "dmasize": "110",
    "website": "www.wilx.com",
    "timezone": "EASTERN",
    "zip": "48911",
    "logo": "WILX.png",
    "owner": "gray",
    "popup": "1",
    "bkgColor": "light",
    "hidden": null,
    "arc_site_name": "wilx"
  },
  {
    "id": "13",
    "title": "KMVT",
    "arcName": "kmvt",
    "lat": "42.581300930",
    "lng": "-114.459400059",
    "img": "",
    "city": "Twin Falls",
    "state": "ID",
    "affiliate": "CBS/ FOX/ CW/ MY",
    "dmasize": "189",
    "website": "www.kmvt.com",
    "timezone": "MOUNTAIN",
    "zip": "83301",
    "logo": "KMVT.png",
    "owner": "gray",
    "popup": "1",
    "bkgColor": "light",
    "hidden": null,
    "arc_site_name": "kmvt"
  },
  {
    "id": "123",
    "title": "KTIV",
    "arcName": "ktiv",
    "lat": "42.534772070",
    "lng": "-96.373294060",
    "img": "",
    "city": "Sioux City",
    "state": "IA",
    "affiliate": "NBC/CW",
    "dmasize": "147",
    "website": "www.ktiv.com",
    "timezone": "CENTRAL",
    "zip": "51108",
    "logo": "KTIV.png",
    "owner": "gray",
    "popup": "1",
    "bkgColor": "dark",
    "hidden": null,
    "arc_site_name": "ktiv"
  },
  {
    "id": "45",
    "title": "WIFR",
    "arcName": "wifr",
    "lat": "42.296432435",
    "lng": "-89.171017286",
    "img": "",
    "city": "Rockford",
    "state": "IL",
    "affiliate": "CBS/ ANTENNA/ TRUECRIME",
    "dmasize": "139",
    "website": "www.wifr.com",
    "timezone": "CENTRAL",
    "zip": "61101",
    "logo": "WIFR.png",
    "owner": "gray",
    "popup": "1",
    "bkgColor": "light",
    "hidden": null,
    "arc_site_name": "wifr"
  },
  {
    "id": "141",
    "title": "WGGB",
    "arcName": "",
    "lat": "42.138378992",
    "lng": "-72.583355758",
    "img": "",
    "city": "Springfield",
    "state": "MA",
    "affiliate": "ABC/FOX",
    "dmasize": "116",
    "website": "www.westernmassnews.com/",
    "timezone": "EASTERN",
    "zip": "01104",
    "logo": "WGGB.png",
    "owner": "gray",
    "popup": "1",
    "bkgColor": "light",
    "hidden": null,
    "arc_site_name": "wggb"
  },
  {
    "id": "125",
    "title": "WBNG",
    "arcName": "wbng",
    "lat": "42.132578460",
    "lng": "-75.962652580",
    "img": "",
    "city": "Binghamton",
    "state": "NY",
    "affiliate": "CBS/CW",
    "dmasize": "158",
    "website": "www.wbng.com",
    "timezone": "EASTERN",
    "zip": "13790",
    "logo": "WBNG.png",
    "owner": "gray",
    "popup": "1",
    "bkgColor": "light",
    "hidden": null,
    "arc_site_name": "wbng"
  },
  {
    "id": "4",
    "title": "KCRG",
    "arcName": "kcrg",
    "lat": "41.979671200",
    "lng": "-91.663904000",
    "img": "",
    "city": "Cedar Rapids",
    "state": "IA",
    "affiliate": "MY/ ABC/ ANTENNA",
    "dmasize": "87",
    "website": "www.kcrg.com",
    "timezone": "CENTRAL",
    "zip": "52401",
    "logo": "KCRG.png",
    "owner": "gray",
    "popup": "1",
    "bkgColor": "light",
    "hidden": null,
    "arc_site_name": "kcrg"
  },
  {
    "id": "14",
    "title": "KNEP",
    "arcName": "knep",
    "lat": "41.862142260",
    "lng": "-103.661015080",
    "img": "",
    "city": "Scottsbluff",
    "state": "NE",
    "affiliate": "NBC/ ABC",
    "dmasize": "197",
    "website": "www.nbcnebraskascottsbluff.com",
    "timezone": "MOUNTAIN",
    "zip": "69361",
    "logo": "KNEP.png",
    "owner": "gray",
    "popup": "1",
    "bkgColor": "light",
    "hidden": null,
    "arc_site_name": "knep"
  },
  {
    "id": "53",
    "title": "WNDU",
    "arcName": "wndu",
    "lat": "41.700913965",
    "lng": "-86.249133752",
    "img": "",
    "city": "South Bend",
    "state": "IN",
    "affiliate": "NBC/ ANTENNA",
    "dmasize": "99",
    "website": "www.wndu.com",
    "timezone": "EASTERN",
    "zip": "46637",
    "logo": "WNDU.png",
    "owner": "gray",
    "popup": "1",
    "bkgColor": "light",
    "hidden": null,
    "arc_site_name": "wndu"
  },
  {
    "id": "60",
    "title": "WTVG",
    "arcName": "wtvg",
    "lat": "41.652075111",
    "lng": "-83.641902363",
    "img": "",
    "city": "Toledo",
    "state": "OH",
    "affiliate": "ABC/ CW",
    "dmasize": "71",
    "website": "www.13abc.com",
    "timezone": "EASTERN",
    "zip": "43607",
    "logo": "WTVG.png",
    "owner": "gray",
    "popup": "1",
    "bkgColor": "light",
    "hidden": null,
    "arc_site_name": "wtvg"
  },
  {
    "id": "135",
    "title": "WFSB",
    "arcName": "",
    "lat": "41.648024078",
    "lng": "-72.662494283",
    "img": "",
    "city": "Rocky Hill",
    "state": "CT",
    "affiliate": "CBS",
    "dmasize": "32",
    "website": "www.wfsb.com",
    "timezone": "EASTERN",
    "zip": "06067",
    "logo": "WFSB.png",
    "owner": "gray",
    "popup": "1",
    "bkgColor": "light",
    "hidden": null,
    "arc_site_name": "wfsb"
  },
  {
    "id": "28",
    "title": "KWQC",
    "arcName": "kwqc",
    "lat": "41.528646600",
    "lng": "-90.573619400",
    "img": "",
    "city": "Davenport-Moline",
    "state": "IA",
    "affiliate": "ION/ NBC/ COZI",
    "dmasize": "98",
    "website": "www.kwqc.com",
    "timezone": "CENTRAL",
    "zip": "52803",
    "logo": "KWQC.png",
    "owner": "gray",
    "popup": "1",
    "bkgColor": "light",
    "hidden": null,
    "arc_site_name": "kwqc"
  },
  {
    "id": "98",
    "title": "WOIO-WUAB",
    "arcName": "woio",
    "lat": "41.502571302",
    "lng": "-81.684936174",
    "img": "",
    "city": "Cleveland",
    "state": "OH",
    "affiliate": "CBS/ ME",
    "dmasize": "19",
    "website": "www.cleveland19.com",
    "timezone": "EASTERN",
    "zip": "44114",
    "logo": "WOIO.png",
    "owner": "raycom",
    "popup": "1",
    "bkgColor": "light",
    "hidden": null,
    "arc_site_name": ""
  },
  {
    "id": "54",
    "title": "WOWT",
    "arcName": "wowt",
    "lat": "41.257325136",
    "lng": "-95.964797359",
    "img": "",
    "city": "Omaha",
    "state": "NE",
    "affiliate": "COZI/ NBC/ ANTENNA",
    "dmasize": "69",
    "website": "www.wowt.com",
    "timezone": "CENTRAL",
    "zip": "68131",
    "logo": "WOWT.png",
    "owner": "gray",
    "popup": "1",
    "bkgColor": "dark",
    "hidden": null,
    "arc_site_name": "wowt"
  },
  {
    "id": "8",
    "title": "KGWN",
    "arcName": "kgwn",
    "lat": "41.138094165",
    "lng": "-104.780784600",
    "img": "",
    "city": "Cheyenne",
    "state": "WY",
    "affiliate": "CBS/ NBC/ CW",
    "dmasize": "197",
    "website": "www.wyomingnewsnow.tv",
    "timezone": "MOUNTAIN",
    "zip": "82001",
    "logo": "KGWN.png",
    "owner": "gray",
    "popup": "1",
    "bkgColor": "light",
    "hidden": null,
    "arc_site_name": "kgwn"
  },
  {
    "id": "9",
    "title": "KIIT",
    "arcName": "knop",
    "lat": "41.130435746",
    "lng": "-100.763235000",
    "img": "",
    "city": "North Platte",
    "state": "NE",
    "affiliate": "FOX",
    "dmasize": "209",
    "website": "www.knopnews2.com",
    "timezone": "CENTRAL",
    "zip": "69101",
    "logo": "KNOP.png",
    "owner": "gray",
    "popup": "1",
    "bkgColor": "light",
    "hidden": null,
    "arc_site_name": ""
  },
  {
    "id": "16",
    "title": "KNOP",
    "arcName": "knop",
    "lat": "41.130435700",
    "lng": "-100.763235100",
    "img": "",
    "city": "North Platte",
    "state": "NE",
    "affiliate": "NBC",
    "dmasize": "209",
    "website": "www.knopnews2.com",
    "timezone": "CENTRAL",
    "zip": "69101",
    "logo": "KNOP.png",
    "owner": "gray",
    "popup": "1",
    "bkgColor": "light",
    "hidden": null,
    "arc_site_name": "knop"
  },
  {
    "id": "115",
    "title": "KNPL",
    "arcName": "knop",
    "lat": "41.130435700",
    "lng": "-100.763235100",
    "img": "",
    "city": "North Platte",
    "state": "NE",
    "affiliate": "CBS",
    "dmasize": "209",
    "website": "www.knopnews2.com",
    "timezone": "CENTRAL",
    "zip": "69101",
    "logo": "KNPL.png",
    "owner": "gray",
    "popup": "1",
    "bkgColor": "light",
    "hidden": null,
    "arc_site_name": ""
  },
  {
    "id": "118",
    "title": "WPTA",
    "arcName": "wpta",
    "lat": "41.102290040",
    "lng": "-85.184537250",
    "img": "",
    "city": "Fort Wayne",
    "state": "IN",
    "affiliate": "ABC/NBC",
    "dmasize": "104",
    "website": "www.wpta21.com",
    "timezone": "EASTERN",
    "zip": "46808",
    "logo": "WPTA.png",
    "owner": "gray",
    "popup": "1",
    "bkgColor": "light",
    "hidden": null,
    "arc_site_name": "wpta"
  },
  {
    "id": "77",
    "title": "KYOU",
    "arcName": "kyou",
    "lat": "41.025538851",
    "lng": "-92.421816931",
    "img": "",
    "city": "Ottumwa-Kirksville",
    "state": "IA",
    "affiliate": "FOX/ NBC/ CW/ GRIT",
    "dmasize": "200",
    "website": "www.kyoutv.com",
    "timezone": "CENTRAL",
    "zip": "52501",
    "logo": "KYOU.png",
    "owner": "raycom",
    "popup": "1",
    "bkgColor": "light",
    "hidden": null,
    "arc_site_name": "kyou"
  },
  {
    "id": "17",
    "title": "KOLN-KGIN",
    "arcName": "koln",
    "lat": "40.821696418",
    "lng": "-96.662685800",
    "img": "",
    "city": "Lincoln",
    "state": "NE",
    "affiliate": "CBS",
    "dmasize": "111",
    "website": "www.1011now.com",
    "timezone": "CENTRAL",
    "zip": "68503",
    "logo": "KOLN.png",
    "owner": "gray",
    "popup": "1",
    "bkgColor": "light",
    "hidden": null,
    "arc_site_name": ""
  },
  {
    "id": "80",
    "title": "Tupelo-Raycom",
    "arcName": "",
    "lat": "40.705699900",
    "lng": "-74.011785000",
    "img": "",
    "city": "New York",
    "state": "NY",
    "affiliate": "",
    "dmasize": "0",
    "website": "tupelohoney.net",
    "timezone": "EASTERN",
    "zip": "10001",
    "logo": "Tupelo-Raycom.png",
    "owner": "corp",
    "popup": "1",
    "bkgColor": "light",
    "hidden": null,
    "arc_site_name": ""
  },
  {
    "id": "22",
    "title": "KSNB",
    "arcName": "ksnb",
    "lat": "40.649160105",
    "lng": "-98.383762570",
    "img": "",
    "city": "Lincoln - Hastings - Kearney",
    "state": "NE",
    "affiliate": "ME/ NBC/ MY",
    "dmasize": "105",
    "website": "www.ksnblocal4.com",
    "timezone": "CENTRAL",
    "zip": "68901",
    "logo": "KSNB.png",
    "owner": "gray",
    "popup": "1",
    "bkgColor": "light",
    "hidden": null,
    "arc_site_name": "ksnb"
  },
  {
    "id": "120",
    "title": "WEEK",
    "arcName": "week",
    "lat": "40.629614250",
    "lng": "-89.548227250",
    "img": "",
    "city": "Peoria",
    "state": "IL",
    "affiliate": "NBC/ABC/CW",
    "dmasize": "118",
    "website": "25newsnow.com",
    "timezone": "CENTRAL",
    "zip": "61611",
    "logo": "WEEK.png",
    "owner": "gray",
    "popup": "1",
    "bkgColor": "light",
    "hidden": null,
    "arc_site_name": "week"
  },
  {
    "id": "127",
    "title": "WGEM",
    "arcName": "wgem",
    "lat": "39.933553530",
    "lng": "-91.407701610",
    "img": "",
    "city": "Quincy",
    "state": "IL",
    "affiliate": "NBC/FOX/CW",
    "dmasize": "172",
    "website": "www.wgem.com",
    "timezone": "CENTRAL",
    "zip": "62301",
    "logo": "WGEM.png",
    "owner": "gray",
    "popup": "1",
    "bkgColor": "light",
    "hidden": null,
    "arc_site_name": "wgem"
  },
  {
    "id": "18",
    "title": "KOLO",
    "arcName": "kolo",
    "lat": "39.510204466",
    "lng": "-119.759091921",
    "img": "",
    "city": "Reno",
    "state": "NV",
    "affiliate": "ABC/ MOVIES",
    "dmasize": "109",
    "website": "www.kolotv.com",
    "timezone": "PACIFIC",
    "zip": "89502",
    "logo": "KOLO.png",
    "owner": "gray",
    "popup": "1",
    "bkgColor": "light",
    "hidden": null,
    "arc_site_name": "kolo"
  },
  {
    "id": "41",
    "title": "WDTV",
    "arcName": "wdtv",
    "lat": "39.284897588",
    "lng": "-80.278424085",
    "img": "",
    "city": "Clarksburg",
    "state": "WV",
    "affiliate": "CBS/ FOX/ CW/ ME",
    "dmasize": "170",
    "website": "www.wdtv.com",
    "timezone": "EASTERN",
    "zip": "26330",
    "logo": "WDTV.png",
    "owner": "gray",
    "popup": "1",
    "bkgColor": "light",
    "hidden": null,
    "arc_site_name": "wdtv"
  },
  {
    "id": "58",
    "title": "WTAP",
    "arcName": "wtap",
    "lat": "39.263204316",
    "lng": "-81.564471766",
    "img": "",
    "city": "Parkersburg",
    "state": "WV",
    "affiliate": "FOX/ MY/ NBC/ CBS/ ME",
    "dmasize": "194",
    "website": "www.wtap.com",
    "timezone": "EASTERN",
    "zip": "26101",
    "logo": "WTAP.png",
    "owner": "gray",
    "popup": "1",
    "bkgColor": "dark",
    "hidden": null,
    "arc_site_name": "wtap"
  },
  {
    "id": "106",
    "title": "WXIX",
    "arcName": "wxix",
    "lat": "39.102041346",
    "lng": "-84.526007089",
    "img": "",
    "city": "Cincinnati",
    "state": "OH",
    "affiliate": "FOX",
    "dmasize": "35",
    "website": "www.fox19.com",
    "timezone": "EASTERN",
    "zip": "45203",
    "logo": "WXIX.png",
    "owner": "raycom",
    "popup": "1",
    "bkgColor": "light",
    "hidden": null,
    "arc_site_name": "wxix"
  },
  {
    "id": "10",
    "title": "KJCT",
    "arcName": "kjct",
    "lat": "39.096552170",
    "lng": "-108.583612900",
    "img": "",
    "city": "Grand Junction-Montrose",
    "state": "CO",
    "affiliate": "ABC/ TEL/ NBC/ CW/ ME",
    "dmasize": "187",
    "website": "www.kjct8.com",
    "timezone": "MOUNTAIN",
    "zip": "81505",
    "logo": "KJCT.png",
    "owner": "gray",
    "popup": "1",
    "bkgColor": "light",
    "hidden": null,
    "arc_site_name": "kjct"
  },
  {
    "id": "11",
    "title": "KKCO",
    "arcName": "kkco",
    "lat": "39.096552170",
    "lng": "-108.583612900",
    "img": "",
    "city": "Grand Junction-Montrose",
    "state": "CO",
    "affiliate": "ABC/ TEL/ NBC/ CW/ ME",
    "dmasize": "187",
    "website": "www.kkco11news.com",
    "timezone": "MOUNTAIN",
    "zip": "81506",
    "logo": "KKCO.png",
    "owner": "gray",
    "popup": "1",
    "bkgColor": "light",
    "hidden": null,
    "arc_site_name": "kkco"
  },
  {
    "id": "44",
    "title": "WIBW",
    "arcName": "wibw",
    "lat": "39.055053126",
    "lng": "-95.768421068",
    "img": "",
    "city": "Topeka",
    "state": "KS",
    "affiliate": "CBS/ ME/ MY",
    "dmasize": "141",
    "website": "www.wibw.com",
    "timezone": "CENTRAL",
    "zip": "66618",
    "logo": "WIBW.png",
    "owner": "gray",
    "popup": "1",
    "bkgColor": "light",
    "hidden": null,
    "arc_site_name": "wibw"
  },
  {
    "id": "136",
    "title": "KCTV",
    "arcName": "",
    "lat": "39.026471414",
    "lng": "-94.637213931",
    "img": "",
    "city": "Fairway",
    "state": "KS",
    "affiliate": "CBS",
    "dmasize": "34",
    "website": "www.kctv5.com/",
    "timezone": "CENTRAL",
    "zip": "66205",
    "logo": "KCTV.png",
    "owner": "gray",
    "popup": "1",
    "bkgColor": "light",
    "hidden": null,
    "arc_site_name": "kctv"
  },
  {
    "id": "1",
    "title": "Gray DC Bureau",
    "arcName": "",
    "lat": "38.896440579",
    "lng": "-77.011794470",
    "img": "",
    "city": "Washington",
    "state": "DC",
    "affiliate": "",
    "dmasize": "0",
    "website": "www.graydc.com",
    "timezone": "EASTERN",
    "zip": "34787",
    "logo": "DC.png",
    "owner": "corp",
    "popup": "1",
    "bkgColor": "light",
    "hidden": null,
    "arc_site_name": ""
  },
  {
    "id": "12",
    "title": "KKTV",
    "arcName": "kktv",
    "lat": "38.832460218",
    "lng": "-104.815199933",
    "img": "",
    "city": "Colorado Springs",
    "state": "CO",
    "affiliate": "CBS/ ME/ MY",
    "dmasize": "91",
    "website": "www.kktv.com",
    "timezone": "MOUNTAIN",
    "zip": "80903",
    "logo": "KKTV.png",
    "owner": "gray",
    "popup": "1",
    "bkgColor": "light",
    "hidden": null,
    "arc_site_name": "kktv"
  },
  {
    "id": "133",
    "title": "KMOV",
    "arcName": "",
    "lat": "38.624507542",
    "lng": "-90.188005956",
    "img": "",
    "city": "St. Louis",
    "state": "MO",
    "affiliate": "CBS",
    "dmasize": "23",
    "website": "www.kmov.com/",
    "timezone": "CENTRAL",
    "zip": "63102",
    "logo": "KMOV.png",
    "owner": "gray",
    "popup": "1",
    "bkgColor": "light",
    "hidden": null,
    "arc_site_name": "kmov"
  },
  {
    "id": "43",
    "title": "WHSV",
    "arcName": "whsv",
    "lat": "38.449868180",
    "lng": "-78.867970620",
    "img": "",
    "city": "Harrisonburg",
    "state": "VA",
    "affiliate": "FOX/ ME/ ABC/ CBS/ MY",
    "dmasize": "175",
    "website": "www.whsv.com",
    "timezone": "EASTERN",
    "zip": "22802",
    "logo": "WHSV.png",
    "owner": "gray",
    "popup": "1",
    "bkgColor": "light",
    "hidden": null,
    "arc_site_name": "whsv"
  },
  {
    "id": "57",
    "title": "WSAZ",
    "arcName": "wsaz",
    "lat": "38.418380825",
    "lng": "-82.447048200",
    "img": "",
    "city": "Huntington",
    "state": "WV",
    "affiliate": "ME/ MY/ CW/ NBC",
    "dmasize": "70",
    "website": "www.wsaz.com",
    "timezone": "EASTERN",
    "zip": "25701",
    "logo": "WSAZ.png",
    "owner": "gray",
    "popup": "1",
    "bkgColor": "light",
    "hidden": null,
    "arc_site_name": "wsaz"
  },
  {
    "id": "84",
    "title": "WAVE",
    "arcName": "wave",
    "lat": "38.244356631",
    "lng": "-85.749232136",
    "img": "",
    "city": "Louisville",
    "state": "KY",
    "affiliate": "NBC",
    "dmasize": "48",
    "website": "www.wave3.com",
    "timezone": "EASTERN",
    "zip": "40203",
    "logo": "WAVE.png",
    "owner": "raycom",
    "popup": "1",
    "bkgColor": "light",
    "hidden": null,
    "arc_site_name": "wave"
  },
  {
    "id": "50",
    "title": "WKYT",
    "arcName": "wkyt",
    "lat": "38.039320579",
    "lng": "-84.402792186",
    "img": "",
    "city": "Lexington",
    "state": "KY",
    "affiliate": "CBS/ CW",
    "dmasize": "63",
    "website": "www.wkyt.com",
    "timezone": "EASTERN",
    "zip": "40509",
    "logo": "WKYT.png",
    "owner": "gray",
    "popup": "1",
    "bkgColor": "light",
    "hidden": null,
    "arc_site_name": "wkyt"
  },
  {
    "id": "62",
    "title": "WVIR",
    "arcName": "wvir",
    "lat": "38.030700796",
    "lng": "-78.477484033",
    "img": "",
    "city": "Charlottesville",
    "state": "VA",
    "affiliate": "NBC",
    "dmasize": "183",
    "website": "www.nbc29.com",
    "timezone": "EASTERN",
    "zip": "22902",
    "logo": "WVIR.png",
    "owner": "gray",
    "popup": "1",
    "bkgColor": "light",
    "hidden": null,
    "arc_site_name": "wvir"
  },
  {
    "id": "91",
    "title": "WFIE",
    "arcName": "wfie",
    "lat": "37.988772190",
    "lng": "-87.594769244",
    "img": "",
    "city": "Evansville",
    "state": "IN",
    "affiliate": "NBC",
    "dmasize": "103",
    "website": "www.14news.com",
    "timezone": "CENTRAL",
    "zip": "47720",
    "logo": "WFIE.png",
    "owner": "raycom",
    "popup": "1",
    "bkgColor": "light",
    "hidden": null,
    "arc_site_name": "wfie"
  },
  {
    "id": "27",
    "title": "KWCH",
    "arcName": "kwch",
    "lat": "37.750938228",
    "lng": "-97.303663971",
    "img": "",
    "city": "Wichita",
    "state": "KS",
    "affiliate": "CBS/ DECADES/ CW",
    "dmasize": "76",
    "website": "www.kwch.com",
    "timezone": "CENTRAL",
    "zip": "67219",
    "logo": "KWCH.png",
    "owner": "gray",
    "popup": "1",
    "bkgColor": "light",
    "hidden": null,
    "arc_site_name": "kwch"
  },
  {
    "id": "102",
    "title": "WUPV",
    "arcName": "wwbt",
    "lat": "37.506248389",
    "lng": "-77.502923693",
    "img": "",
    "city": "Richmond",
    "state": "VA",
    "affiliate": "CW",
    "dmasize": "56",
    "website": "www.nbc12.com",
    "timezone": "EASTERN",
    "zip": "23225",
    "logo": "WUPV.png",
    "owner": "raycom",
    "popup": "1",
    "bkgColor": "light",
    "hidden": null,
    "arc_site_name": "wtxl"
  },
  {
    "id": "104",
    "title": "WWBT",
    "arcName": "wwbt",
    "lat": "37.506196560",
    "lng": "-77.502901505",
    "img": "",
    "city": "Richmond",
    "state": "VA",
    "affiliate": "NBC",
    "dmasize": "56",
    "website": "www.nbc12.com",
    "timezone": "EASTERN",
    "zip": "23225",
    "logo": "WWBT.png",
    "owner": "raycom",
    "popup": "1",
    "bkgColor": "light",
    "hidden": null,
    "arc_site_name": "wwbt"
  },
  {
    "id": "40",
    "title": "WDBJ",
    "arcName": "wdbj",
    "lat": "37.307458390",
    "lng": "-79.978132085",
    "img": "",
    "city": "Roanoke-Lynchburg",
    "state": "VA",
    "affiliate": "CBS/ DECADES/ MY",
    "dmasize": "68",
    "website": "www.wdbj7.com",
    "timezone": "EASTERN",
    "zip": "24017",
    "logo": "WDBJ.png",
    "owner": "gray",
    "popup": "1",
    "bkgColor": "light",
    "hidden": null,
    "arc_site_name": "wdbj"
  },
  {
    "id": "69",
    "title": "KFVS-WQWQ-WQTV",
    "arcName": "kfvs12",
    "lat": "37.306554147",
    "lng": "-89.521156712",
    "img": "",
    "city": "Cape Girardeau",
    "state": "MO",
    "affiliate": "CBS",
    "dmasize": "88",
    "website": "www.kfvs12.com",
    "timezone": "CENTRAL",
    "zip": "63701",
    "logo": "KFVS.png",
    "owner": "raycom",
    "popup": "1",
    "bkgColor": "light",
    "hidden": null,
    "arc_site_name": ""
  },
  {
    "id": "126",
    "title": "WVVA",
    "arcName": "wvva",
    "lat": "37.258800020",
    "lng": "-81.191199800",
    "img": "",
    "city": "Bluefield-Beckley",
    "state": "WV",
    "affiliate": "NBC/CW",
    "dmasize": "162",
    "website": "www.wvva.com",
    "timezone": "EASTERN",
    "zip": "24701",
    "logo": "WVVA.png",
    "owner": "gray",
    "popup": "1",
    "bkgColor": "light",
    "hidden": null,
    "arc_site_name": "wvva"
  },
  {
    "id": "64",
    "title": "WYMT",
    "arcName": "wymt",
    "lat": "37.255122300",
    "lng": "-83.201008944",
    "img": "",
    "city": "Hazard-Lexington",
    "state": "KY",
    "affiliate": "CBS",
    "dmasize": "63",
    "website": "www.wymt.com",
    "timezone": "EASTERN",
    "zip": "41701",
    "logo": "WYMT.png",
    "owner": "gray",
    "popup": "1",
    "bkgColor": "dark",
    "hidden": null,
    "arc_site_name": "wymt"
  },
  {
    "id": "23",
    "title": "KSPR",
    "arcName": "ky3",
    "lat": "37.183602770",
    "lng": "-93.303434067",
    "img": "",
    "city": "Springfield",
    "state": "MO",
    "affiliate": "ABC/ CW/ ANTENNA",
    "dmasize": "72",
    "website": "www.ky3.com",
    "timezone": "CENTRAL",
    "zip": "68507",
    "logo": "KSPR.png",
    "owner": "gray",
    "popup": "1",
    "bkgColor": "light",
    "hidden": null,
    "arc_site_name": "kspr"
  },
  {
    "id": "32",
    "title": "KYTV",
    "arcName": "ky3",
    "lat": "37.183602770",
    "lng": "-93.303434067",
    "img": "",
    "city": "Springfield",
    "state": "MO",
    "affiliate": "NBC/ COZI",
    "dmasize": "72",
    "website": "www.ky3.com",
    "timezone": "CENTRAL",
    "zip": "68502",
    "logo": "KYTV.png",
    "owner": "gray",
    "popup": "1",
    "bkgColor": "light",
    "hidden": null,
    "arc_site_name": ""
  },
  {
    "id": "36",
    "title": "WBKO",
    "arcName": "wbko",
    "lat": "36.960360458",
    "lng": "-86.493349994",
    "img": "",
    "city": "Bowling Green",
    "state": "KY",
    "affiliate": "FOX/ CW/ ABC",
    "dmasize": "181",
    "website": "www.wbko.com",
    "timezone": "CENTRAL",
    "zip": "42101",
    "logo": "WBKO.png",
    "owner": "gray",
    "popup": "1",
    "bkgColor": "dark",
    "hidden": null,
    "arc_site_name": "wbko"
  },
  {
    "id": "134",
    "title": "WSMV",
    "arcName": "",
    "lat": "36.141195701",
    "lng": "-86.862443503",
    "img": "",
    "city": "Nashville",
    "state": "TN",
    "affiliate": "NBC",
    "dmasize": "29",
    "website": "www.wsmv.com/",
    "timezone": "CENTRAL",
    "zip": "37209",
    "logo": "WSMV.png",
    "owner": "gray",
    "popup": "1",
    "bkgColor": "light",
    "hidden": null,
    "arc_site_name": "wsmv"
  },
  {
    "id": "138",
    "title": "KVVU",
    "arcName": "",
    "lat": "36.070185038",
    "lng": "-115.069176756",
    "img": "",
    "city": "Henderson",
    "state": "NV",
    "affiliate": "FOX",
    "dmasize": "40",
    "website": "www.fox5vegas.com/",
    "timezone": "PACIFIC",
    "zip": "89014",
    "logo": "KVVU.png",
    "owner": "gray",
    "popup": "1",
    "bkgColor": "light",
    "hidden": null,
    "arc_site_name": "kvvu"
  },
  {
    "id": "63",
    "title": "WVLT",
    "arcName": "wvlt",
    "lat": "35.934262578",
    "lng": "-84.012730990",
    "img": "",
    "city": "Knoxville",
    "state": "TN",
    "affiliate": "CBS/ MY/ ESCAPE/ CW",
    "dmasize": "60",
    "website": "www.wvlt.tv",
    "timezone": "EASTERN",
    "zip": "37919",
    "logo": "WVLT.png",
    "owner": "gray",
    "popup": "1",
    "bkgColor": "dark",
    "hidden": null,
    "arc_site_name": "wvlt"
  },
  {
    "id": "65",
    "title": "KAIT",
    "arcName": "kait",
    "lat": "35.907356333",
    "lng": "-90.693178841",
    "img": "",
    "city": "Jonesboro    ",
    "state": " AR",
    "affiliate": "ABC/ NBC/ CW",
    "dmasize": "180",
    "website": "www.kait8.com",
    "timezone": "CENTRAL",
    "zip": "72401",
    "logo": "KAIT.png",
    "owner": "raycom",
    "popup": "1",
    "bkgColor": "light",
    "hidden": null,
    "arc_site_name": "kait"
  },
  {
    "id": "79",
    "title": "RTM Studios",
    "arcName": "",
    "lat": "35.895535231",
    "lng": "-86.864451423",
    "img": "",
    "city": "Nashville",
    "state": "TN",
    "affiliate": "",
    "dmasize": "0",
    "website": "rtmtv.com",
    "timezone": "CENTRAL",
    "zip": "37011",
    "logo": "RTM.png",
    "owner": "corp",
    "popup": "1",
    "bkgColor": "light",
    "hidden": null,
    "arc_site_name": ""
  },
  {
    "id": "47",
    "title": "WITN",
    "arcName": "witn",
    "lat": "35.588338144",
    "lng": "-77.373258816",
    "img": "",
    "city": "Greenville - New Bern -Washington",
    "state": "NC",
    "affiliate": "MY/ NBC/ ME",
    "dmasize": "107",
    "website": "www.witn.com",
    "timezone": "EASTERN",
    "zip": "27834",
    "logo": "WITN.png",
    "owner": "gray",
    "popup": "1",
    "bkgColor": "light",
    "hidden": null,
    "arc_site_name": "witn"
  },
  {
    "id": "68",
    "title": "KFDA-KEYU",
    "arcName": "kfda",
    "lat": "35.292512325",
    "lng": "-101.847473642",
    "img": "",
    "city": "Amarillo",
    "state": "TX",
    "affiliate": "CBS/TEL",
    "dmasize": "131",
    "website": "www.newschannel10.com",
    "timezone": "CENTRAL",
    "zip": "79105",
    "logo": "KFDA.png",
    "owner": "raycom",
    "popup": "1",
    "bkgColor": "light",
    "hidden": null,
    "arc_site_name": ""
  },
  {
    "id": "78",
    "title": "Raycom Sports",
    "arcName": "",
    "lat": "35.228289487",
    "lng": "-80.872637126",
    "img": "",
    "city": "Charlotte",
    "state": "NC",
    "affiliate": "",
    "dmasize": "0",
    "website": "raycomsports.com",
    "timezone": "EASTERN",
    "zip": "28105",
    "logo": "SPORTS.png",
    "owner": "corp",
    "popup": "1",
    "bkgColor": "light",
    "hidden": null,
    "arc_site_name": ""
  },
  {
    "id": "86",
    "title": "WBTV",
    "arcName": "wbtv",
    "lat": "35.227355294",
    "lng": "-80.872097084",
    "img": "",
    "city": "Charlotte",
    "state": "NC",
    "affiliate": "CBS",
    "dmasize": "23",
    "website": "www.wbtv.com",
    "timezone": "EASTERN",
    "zip": "28208",
    "logo": "WBTV.png",
    "owner": "raycom",
    "popup": "1",
    "bkgColor": "light",
    "hidden": null,
    "arc_site_name": "wbtv"
  },
  {
    "id": "97",
    "title": "WMC",
    "arcName": "wmctv",
    "lat": "35.135162897",
    "lng": "-89.996167518",
    "img": "",
    "city": "Memphis",
    "state": "TN",
    "affiliate": "NBC",
    "dmasize": "51",
    "website": "www.wmcactionnews5.com",
    "timezone": "CENTRAL",
    "zip": "38104",
    "logo": "WMC.png",
    "owner": "raycom",
    "popup": "1",
    "bkgColor": "light",
    "hidden": null,
    "arc_site_name": "wmctv"
  },
  {
    "id": "137",
    "title": "WHNS",
    "arcName": "",
    "lat": "34.858365314",
    "lng": "-82.263829206",
    "img": "",
    "city": "Greenville",
    "state": "SC",
    "affiliate": "FOX",
    "dmasize": "35",
    "website": "www.foxcarolina.com/",
    "timezone": "EASTERN",
    "zip": "29615",
    "logo": "WHNS.png",
    "owner": "gray",
    "popup": "1",
    "bkgColor": "light",
    "hidden": null,
    "arc_site_name": "whns"
  },
  {
    "id": "82",
    "title": "WAFF",
    "arcName": "waff",
    "lat": "34.747631481",
    "lng": "-86.599117025",
    "img": "",
    "city": "Huntsville",
    "state": "AL",
    "affiliate": "NBC",
    "dmasize": "79",
    "website": "www.waff.com",
    "timezone": "CENTRAL",
    "zip": "35801",
    "logo": "WAFF.png",
    "owner": "raycom",
    "popup": "1",
    "bkgColor": "light",
    "hidden": null,
    "arc_site_name": "waff"
  },
  {
    "id": "75",
    "title": "KSWO",
    "arcName": "kswo",
    "lat": "34.592831311",
    "lng": "-98.318393984",
    "img": "",
    "city": "Lawton",
    "state": "OK",
    "affiliate": "ABC",
    "dmasize": "148",
    "website": "www.kswo.com",
    "timezone": "CENTRAL",
    "zip": "73501",
    "logo": "KSWO.png",
    "owner": "raycom",
    "popup": "1",
    "bkgColor": "light",
    "hidden": null,
    "arc_site_name": "kswo"
  },
  {
    "id": "90",
    "title": "WECT",
    "arcName": "wect",
    "lat": "34.191122747",
    "lng": "-77.941031268",
    "img": "",
    "city": "Wilmington",
    "state": "NC",
    "affiliate": "NBC",
    "dmasize": "129",
    "website": "www.wect.com",
    "timezone": "EASTERN",
    "zip": "28412",
    "logo": "WECT.png",
    "owner": "raycom",
    "popup": "1",
    "bkgColor": "light",
    "hidden": null,
    "arc_site_name": "wect"
  },
  {
    "id": "93",
    "title": "WIS",
    "arcName": "wistv",
    "lat": "34.002267044",
    "lng": "-81.028889990",
    "img": "",
    "city": "Columbia",
    "state": "SC",
    "affiliate": "NBC",
    "dmasize": "74",
    "website": "www.wistv.com",
    "timezone": "EASTERN",
    "zip": "29201",
    "logo": "WIS.png",
    "owner": "raycom",
    "popup": "1",
    "bkgColor": "light",
    "hidden": null,
    "arc_site_name": "wistv"
  },
  {
    "id": "66",
    "title": "KAUZ",
    "arcName": "kauz",
    "lat": "33.901019663",
    "lng": "-98.539291593",
    "img": "",
    "city": "Wichita Falls    ",
    "state": " TX",
    "affiliate": "CBS",
    "dmasize": "148",
    "website": "www.newschannel6now.com",
    "timezone": "CENTRAL",
    "zip": "76309",
    "logo": "KAUZ.png",
    "owner": "raycom",
    "popup": "1",
    "bkgColor": "light",
    "hidden": null,
    "arc_site_name": "kauz"
  },
  {
    "id": "109",
    "title": "CORP",
    "arcName": "",
    "lat": "33.871447514",
    "lng": "-84.333997198",
    "img": "",
    "city": "Atlanta",
    "state": "GA",
    "affiliate": "",
    "dmasize": "",
    "website": "gray.tv",
    "timezone": "EASTERN",
    "zip": "30319",
    "logo": "CORP.png",
    "owner": "corp",
    "popup": "1",
    "bkgColor": "light",
    "hidden": null,
    "arc_site_name": ""
  },
  {
    "id": "130",
    "title": "WANF",
    "arcName": "wgcl",
    "lat": "33.786757960",
    "lng": "-84.400269074",
    "img": "",
    "city": "Atlanta",
    "state": "GA",
    "affiliate": "CBS",
    "dmasize": "7",
    "website": "atlantanewsfirst.com",
    "timezone": "EASTERN",
    "zip": "30318",
    "logo": "WANF.png",
    "owner": "gray",
    "popup": "1",
    "bkgColor": "light",
    "hidden": null,
    "arc_site_name": ""
  },
  {
    "id": "96",
    "title": "WMBF",
    "arcName": "wmbf",
    "lat": "33.711791734",
    "lng": "-78.902784329",
    "img": "",
    "city": "Myrtle Beach-Florence",
    "state": "SC",
    "affiliate": "NBC",
    "dmasize": "95",
    "website": "www.wmbfnews.com",
    "timezone": "EASTERN",
    "zip": "29577",
    "logo": "WMBF.png",
    "owner": "raycom",
    "popup": "1",
    "bkgColor": "light",
    "hidden": null,
    "arc_site_name": "wmbf"
  },
  {
    "id": "30",
    "title": "KXII",
    "arcName": "kxii",
    "lat": "33.680133338",
    "lng": "-96.585316250",
    "img": "",
    "city": "Sherman-Ada-Paris",
    "state": "TX",
    "affiliate": "CBS/ FOX/ MY",
    "dmasize": "159",
    "website": "www.kxii.com",
    "timezone": "CENTRAL",
    "zip": "75090",
    "logo": "KXII.png",
    "owner": "gray",
    "popup": "1",
    "bkgColor": "light",
    "hidden": null,
    "arc_site_name": "kxii"
  },
  {
    "id": "31",
    "title": "KXIP",
    "arcName": "kxii",
    "lat": "33.680118636",
    "lng": "-96.585257909",
    "img": "",
    "city": "Sherman-Ada-Paris",
    "state": "TX",
    "affiliate": "CBS/ FOX/ MY",
    "dmasize": "158",
    "website": "www.kxii.com",
    "timezone": "CENTRAL",
    "zip": "75090",
    "logo": "KXIP.png",
    "owner": "gray",
    "popup": "1",
    "bkgColor": "light",
    "hidden": null,
    "arc_site_name": ""
  },
  {
    "id": "67",
    "title": "KCBD",
    "arcName": "kcbd",
    "lat": "33.542321818",
    "lng": "-101.837875998",
    "img": "",
    "city": "Lubbock",
    "state": "TX",
    "affiliate": "NBC",
    "dmasize": "145",
    "website": "www.kcbd.com",
    "timezone": "CENTRAL",
    "zip": "79404",
    "logo": "KCBD.png",
    "owner": "raycom",
    "popup": "1",
    "bkgColor": "light",
    "hidden": null,
    "arc_site_name": "kcbd"
  },
  {
    "id": "131",
    "title": "KPHO",
    "arcName": "",
    "lat": "33.518091010",
    "lng": "-112.081776277",
    "img": "",
    "city": "Phoenix",
    "state": "AZ",
    "affiliate": "CBS",
    "dmasize": "11",
    "website": "www.azfamily.com/",
    "timezone": "MOUNTAIN",
    "zip": "85013",
    "logo": "KPHO.png",
    "owner": "gray",
    "popup": "1",
    "bkgColor": "light",
    "hidden": null,
    "arc_site_name": "kpho"
  },
  {
    "id": "55",
    "title": "WRDW",
    "arcName": "wrdw",
    "lat": "33.506045454",
    "lng": "-81.962252651",
    "img": "",
    "city": "Augusta-Aiken",
    "state": "GA",
    "affiliate": "CBS/ MY",
    "dmasize": "105",
    "website": "www.wrdw.com",
    "timezone": "EASTERN",
    "zip": "30906",
    "logo": "WRDW.png",
    "owner": "gray",
    "popup": "1",
    "bkgColor": "dark",
    "hidden": null,
    "arc_site_name": "wrdw"
  },
  {
    "id": "85",
    "title": "WBRC",
    "arcName": "wbrc",
    "lat": "33.489704313",
    "lng": "-86.798957487",
    "img": "",
    "city": "Birmingham",
    "state": "AL",
    "affiliate": "FOX",
    "dmasize": "43",
    "website": "www.wbrc.com",
    "timezone": "CENTRAL",
    "zip": "35209",
    "logo": "WBRC.png",
    "owner": "raycom",
    "popup": "1",
    "bkgColor": "light",
    "hidden": null,
    "arc_site_name": "wbrc"
  },
  {
    "id": "87",
    "title": "WCSC",
    "arcName": "wcsc",
    "lat": "32.813354053",
    "lng": "-80.047200561",
    "img": "",
    "city": "Charleston",
    "state": "SC",
    "affiliate": "CBS",
    "dmasize": "94",
    "website": "www.live5news.com",
    "timezone": "EASTERN",
    "zip": "29414",
    "logo": "WCSC.png",
    "owner": "raycom",
    "popup": "1",
    "bkgColor": "light",
    "hidden": null,
    "arc_site_name": "wcsc"
  },
  {
    "id": "15",
    "title": "KNOE",
    "arcName": "knoe",
    "lat": "32.527583005",
    "lng": "-92.103042896",
    "img": "",
    "city": "Monroe",
    "state": "LA",
    "affiliate": "CW/ CBS/ ABC",
    "dmasize": "137",
    "website": "www.knoe.com",
    "timezone": "CENTRAL",
    "zip": "71201",
    "logo": "KNOE.png",
    "owner": "gray",
    "popup": "1",
    "bkgColor": "light",
    "hidden": null,
    "arc_site_name": "knoe"
  },
  {
    "id": "74",
    "title": "KSLA",
    "arcName": "ksla",
    "lat": "32.494009730",
    "lng": "-93.752892594",
    "img": "",
    "city": "Shreveport",
    "state": "LA",
    "affiliate": "CBS/ GRIT",
    "dmasize": "90",
    "website": "www.ksla.com",
    "timezone": "CENTRAL",
    "zip": "34787",
    "logo": "KSLA.png",
    "owner": "raycom",
    "popup": "1",
    "bkgColor": "light",
    "hidden": null,
    "arc_site_name": "ksla"
  },
  {
    "id": "101",
    "title": "WTVM",
    "arcName": "wtvm",
    "lat": "32.468637722",
    "lng": "-84.965492534",
    "img": "",
    "city": "Columbus",
    "state": "GA",
    "affiliate": "ABC",
    "dmasize": "127",
    "website": "www.wtvm.com",
    "timezone": "EASTERN",
    "zip": "31906",
    "logo": "WTVM.png",
    "owner": "raycom",
    "popup": "1",
    "bkgColor": "light",
    "hidden": null,
    "arc_site_name": "wtvm"
  },
  {
    "id": "59",
    "title": "WTOK",
    "arcName": "wtok",
    "lat": "32.365678423",
    "lng": "-88.701835202",
    "img": "",
    "city": "Meridian",
    "state": "MS",
    "affiliate": "MY/ CW/ ABC",
    "dmasize": "191",
    "website": "www.wtok.com",
    "timezone": "CENTRAL",
    "zip": "39301",
    "logo": "WTOK.png",
    "owner": "gray",
    "popup": "1",
    "bkgColor": "light",
    "hidden": null,
    "arc_site_name": "wtok"
  },
  {
    "id": "71",
    "title": "KLTV",
    "arcName": "kltv",
    "lat": "32.351926761",
    "lng": "-95.300943095",
    "img": "",
    "city": "Tyler-Longview-Lufkin",
    "state": "TX",
    "affiliate": "ABC",
    "dmasize": "114",
    "website": "www.kltv.com",
    "timezone": "CENTRAL",
    "zip": "75702",
    "logo": "KLTV.png",
    "owner": "raycom",
    "popup": "1",
    "bkgColor": "light",
    "hidden": null,
    "arc_site_name": "kltv"
  },
  {
    "id": "72",
    "title": "KOLD",
    "arcName": "kold",
    "lat": "32.348900827",
    "lng": "-111.084535333",
    "img": "",
    "city": "Tucson",
    "state": "AZ",
    "affiliate": "CBS",
    "dmasize": "73",
    "website": "www.kold.com",
    "timezone": "MOUNTAIN",
    "zip": "85743",
    "logo": "KOLD.png",
    "owner": "raycom",
    "popup": "1",
    "bkgColor": "light",
    "hidden": null,
    "arc_site_name": "kold"
  },
  {
    "id": "99",
    "title": "WSFA",
    "arcName": "wsfa",
    "lat": "32.336962003",
    "lng": "-86.307218442",
    "img": "",
    "city": "Montgomery-Selma",
    "state": "AL",
    "affiliate": "NBC",
    "dmasize": "116",
    "website": "www.wsfa.com",
    "timezone": "CENTRAL",
    "zip": "36104",
    "logo": "WSFA.png",
    "owner": "raycom",
    "popup": "1",
    "bkgColor": "light",
    "hidden": null,
    "arc_site_name": "wsfa"
  },
  {
    "id": "89",
    "title": "WDBD",
    "arcName": "",
    "lat": "32.290817281",
    "lng": "-90.179775265",
    "img": "",
    "city": "Jackson",
    "state": "MS",
    "affiliate": "FOX",
    "dmasize": "92",
    "website": "fox40jackson.com",
    "timezone": "CENTRAL",
    "zip": "39201",
    "logo": "WDBD.png",
    "owner": "raycom",
    "popup": "1",
    "bkgColor": "light",
    "hidden": null,
    "arc_site_name": ""
  },
  {
    "id": "94",
    "title": "WLBT",
    "arcName": "wlbt",
    "lat": "32.290815483",
    "lng": "-90.179764565",
    "img": "",
    "city": "Jackson",
    "state": "MS",
    "affiliate": "NBC",
    "dmasize": "92",
    "website": "www.wlbt.com",
    "timezone": "CENTRAL",
    "zip": "39201",
    "logo": "WLBT.png",
    "owner": "raycom",
    "popup": "1",
    "bkgColor": "light",
    "hidden": null,
    "arc_site_name": "wlbt"
  },
  {
    "id": "100",
    "title": "WTOC",
    "arcName": "wtoc",
    "lat": "32.066657156",
    "lng": "-81.156074740",
    "img": "",
    "city": "Savannah",
    "state": "GA",
    "affiliate": "CBS",
    "dmasize": "93",
    "website": "www.wtoc.com",
    "timezone": "EASTERN",
    "zip": "31412",
    "logo": "WTOC.png",
    "owner": "raycom",
    "popup": "1",
    "bkgColor": "light",
    "hidden": null,
    "arc_site_name": "wtoc"
  },
  {
    "id": "19",
    "title": "KOSA",
    "arcName": "kosa",
    "lat": "31.896141410",
    "lng": "-102.338477040",
    "img": "",
    "city": "Odessa - Midland",
    "state": "TX",
    "affiliate": "CBS/ MY/ H&I",
    "dmasize": "141",
    "website": "www.cbs7.com",
    "timezone": "CENTRAL",
    "zip": "79762",
    "logo": "KOSA.png",
    "owner": "gray",
    "popup": "1",
    "bkgColor": "light",
    "hidden": null,
    "arc_site_name": "kosa"
  },
  {
    "id": "83",
    "title": "WALB",
    "arcName": "walb",
    "lat": "31.612921895",
    "lng": "-84.188349730",
    "img": "",
    "city": "Albany",
    "state": "GA",
    "affiliate": "NBC/ ABC",
    "dmasize": "152",
    "website": "www.walb.com",
    "timezone": "EASTERN",
    "zip": "31706",
    "logo": "WALB.png",
    "owner": "raycom",
    "popup": "1",
    "bkgColor": "light",
    "hidden": null,
    "arc_site_name": "walb"
  },
  {
    "id": "29",
    "title": "KWTX",
    "arcName": "kwtx",
    "lat": "31.512600747",
    "lng": "-97.193659137",
    "img": "",
    "city": "Waco-Bryan",
    "state": "TX",
    "affiliate": "CBS/ CW",
    "dmasize": "89",
    "website": "www.kwtx.com",
    "timezone": "CENTRAL",
    "zip": "76712",
    "logo": "KWTX.png",
    "owner": "gray",
    "popup": "1",
    "bkgColor": "light",
    "hidden": null,
    "arc_site_name": "kwtx"
  },
  {
    "id": "88",
    "title": "WDAM",
    "arcName": "wdam",
    "lat": "31.452604536",
    "lng": "-89.284359271",
    "img": "",
    "city": "Hattiesburg",
    "state": "MS",
    "affiliate": "NBC/ ABC",
    "dmasize": "168",
    "website": "www.wdam.com",
    "timezone": "CENTRAL",
    "zip": "39459",
    "logo": "WDAM.png",
    "owner": "raycom",
    "popup": "1",
    "bkgColor": "light",
    "hidden": null,
    "arc_site_name": "wdam"
  },
  {
    "id": "76",
    "title": "KTRE",
    "arcName": "ktre",
    "lat": "31.419241846",
    "lng": "-94.801353175",
    "img": "",
    "city": "Tyler-Longview-Lufkin",
    "state": "TX",
    "affiliate": "ABC",
    "dmasize": "114",
    "website": "www.ktre.com",
    "timezone": "CENTRAL",
    "zip": "75969",
    "logo": "KTRE.png",
    "owner": "raycom",
    "popup": "1",
    "bkgColor": "light",
    "hidden": null,
    "arc_site_name": "ktre"
  },
  {
    "id": "2",
    "title": "KALB",
    "arcName": "kalb",
    "lat": "31.308333078",
    "lng": "-92.445454318",
    "img": "",
    "city": "Alexandria",
    "state": "LA",
    "affiliate": "CW/ NBC/ CBS",
    "dmasize": "179",
    "website": "www.kalb.com",
    "timezone": "CENTRAL",
    "zip": "71301",
    "logo": "KALB.png",
    "owner": "gray",
    "popup": "1",
    "bkgColor": "light",
    "hidden": null,
    "arc_site_name": "kalb"
  },
  {
    "id": "61",
    "title": "WTVY",
    "arcName": "wtvy",
    "lat": "31.226309797",
    "lng": "-85.392744582",
    "img": "",
    "city": "Dothan",
    "state": "AL",
    "affiliate": "CBS/ NBC/ CW/ MY",
    "dmasize": "173",
    "website": "www.wtvy.com",
    "timezone": "CENTRAL",
    "zip": "36303",
    "logo": "WTVY.png",
    "owner": "gray",
    "popup": "1",
    "bkgColor": "light",
    "hidden": null,
    "arc_site_name": "wtvy"
  },
  {
    "id": "139",
    "title": "WALA",
    "arcName": "",
    "lat": "30.649347557",
    "lng": "-88.114017378",
    "img": "",
    "city": "Mobile",
    "state": "AL",
    "affiliate": "FOX",
    "dmasize": "57",
    "website": "www.fox10tv.com/",
    "timezone": "CENTRAL",
    "zip": "36606",
    "logo": "WALA.png",
    "owner": "gray",
    "popup": "1",
    "bkgColor": "light",
    "hidden": null,
    "arc_site_name": "wala"
  },
  {
    "id": "3",
    "title": "KBTX",
    "arcName": "kbtx",
    "lat": "30.642904100",
    "lng": "-96.331615900",
    "img": "",
    "city": "Waco-Bryan",
    "state": "TX",
    "affiliate": "CBS/ CW",
    "dmasize": "89",
    "website": "www.kbtx.com",
    "timezone": "CENTRAL",
    "zip": "77802",
    "logo": "KBTX.png",
    "owner": "gray",
    "popup": "1",
    "bkgColor": "light",
    "hidden": null,
    "arc_site_name": "kbtx"
  },
  {
    "id": "39",
    "title": "WCTV",
    "arcName": "wctv",
    "lat": "30.502719891",
    "lng": "-84.247510972",
    "img": "",
    "city": "Tallahassee-Thomasville",
    "state": "FL",
    "affiliate": "CBS/ THIS/ DECADES/ MY",
    "dmasize": "112",
    "website": "www.wctv.tv",
    "timezone": "EASTERN",
    "zip": "32312",
    "logo": "WCTV.png",
    "owner": "gray",
    "popup": "1",
    "bkgColor": "light",
    "hidden": null,
    "arc_site_name": "wctv"
  },
  {
    "id": "81",
    "title": "WAFB-WBXH",
    "arcName": "wafb",
    "lat": "30.443200683",
    "lng": "-91.181703217",
    "img": "",
    "city": "Baton Rouge ",
    "state": " LA",
    "affiliate": "CBS",
    "dmasize": "97",
    "website": "www.wafb.com",
    "timezone": "CENTRAL",
    "zip": "70802",
    "logo": "WAFB.png",
    "owner": "raycom",
    "popup": "1",
    "bkgColor": "light",
    "hidden": null,
    "arc_site_name": ""
  },
  {
    "id": "95",
    "title": "WLOX",
    "arcName": "wlox",
    "lat": "30.394017868",
    "lng": "-89.000199295",
    "img": "",
    "city": "Biloxi-Gulfport",
    "state": "MS",
    "affiliate": "ABC/ CBS",
    "dmasize": "156",
    "website": "www.wlox.com",
    "timezone": "CENTRAL",
    "zip": "39531",
    "logo": "WLOX.png",
    "owner": "raycom",
    "popup": "1",
    "bkgColor": "light",
    "hidden": null,
    "arc_site_name": "wlox"
  },
  {
    "id": "73",
    "title": "KPLC",
    "arcName": "kplc",
    "lat": "30.230264572",
    "lng": "-93.215784105",
    "img": "",
    "city": "Lake Charles",
    "state": "LA",
    "affiliate": "NBC",
    "dmasize": "172",
    "website": "www.kplctv.com",
    "timezone": "CENTRAL",
    "zip": "70601",
    "logo": "KPLC.png",
    "owner": "raycom",
    "popup": "1",
    "bkgColor": "light",
    "hidden": null,
    "arc_site_name": "kplc"
  },
  {
    "id": "48",
    "title": "WJHG",
    "arcName": "wjhg",
    "lat": "30.184106110",
    "lng": "-85.776546116",
    "img": "",
    "city": "Panama City",
    "state": "FL",
    "affiliate": "MY/ NBC/ CBS/ CW",
    "dmasize": "150",
    "website": "www.wjhg.com",
    "timezone": "CENTRAL",
    "zip": "32407",
    "logo": "WJHG.png",
    "owner": "gray",
    "popup": "1",
    "bkgColor": "light",
    "hidden": null,
    "arc_site_name": "wjhg"
  },
  {
    "id": "103",
    "title": "WVUE",
    "arcName": "wvue",
    "lat": "29.960586316",
    "lng": "-90.103135405",
    "img": "",
    "city": "New Orleans",
    "state": "LA",
    "affiliate": "FOX",
    "dmasize": "50",
    "website": "www.fox8live.com",
    "timezone": "CENTRAL",
    "zip": "70125",
    "logo": "WVUE.png",
    "owner": "raycom",
    "popup": "1",
    "bkgColor": "light",
    "hidden": null,
    "arc_site_name": "wvue"
  },
  {
    "id": "129",
    "title": "INVESTIGATE TV",
    "arcName": "",
    "lat": "29.960586316",
    "lng": "-90.303135405",
    "img": "",
    "city": "New Orleans",
    "state": "LA",
    "affiliate": "FOX",
    "dmasize": "50",
    "website": "www.investigatetv.com",
    "timezone": "CENTRAL",
    "zip": "70125",
    "logo": "INVESTIGATE.png",
    "owner": "corp",
    "popup": "1",
    "bkgColor": "light",
    "hidden": null,
    "arc_site_name": ""
  },
  {
    "id": "38",
    "title": "WCJB",
    "arcName": "wcjb",
    "lat": "29.711863933",
    "lng": "-82.389969466",
    "img": "",
    "city": "Gainesville",
    "state": "FL",
    "affiliate": "CW/ ABC",
    "dmasize": "157",
    "website": "www.wcjb.com",
    "timezone": "EASTERN",
    "zip": "32653",
    "logo": "WCJB.png",
    "owner": "gray",
    "popup": "1",
    "bkgColor": "light",
    "hidden": null,
    "arc_site_name": "wcjb"
  },
  {
    "id": "7",
    "title": "KGNS",
    "arcName": "kgns",
    "lat": "27.568080000",
    "lng": "-99.498472000",
    "img": "",
    "city": "Laredo",
    "state": "TX",
    "affiliate": "ABC/ NBC/ CW/ TEL/ CBS",
    "dmasize": "184",
    "website": "www.kgns.tv",
    "timezone": "CENTRAL",
    "zip": "78045",
    "logo": "KGNS.png",
    "owner": "gray",
    "popup": "1",
    "bkgColor": "light",
    "hidden": null,
    "arc_site_name": "kgns"
  },
  {
    "id": "105",
    "title": "WWSB",
    "arcName": "wwsb",
    "lat": "27.345320457",
    "lng": "-82.541112179",
    "img": "",
    "city": "Sarasota-Tampa-St. Pete",
    "state": "FL",
    "affiliate": "ABC",
    "dmasize": "11",
    "website": "www.mysuncoast.com",
    "timezone": "EASTERN",
    "zip": "34236",
    "logo": "WWSB.png",
    "owner": "raycom",
    "popup": "1",
    "bkgColor": "light",
    "hidden": null,
    "arc_site_name": "wwsb"
  },
  {
    "id": "92",
    "title": "WFLX",
    "arcName": "wflx",
    "lat": "26.713807294",
    "lng": "-80.064993128",
    "img": "",
    "city": "W. Palm Beach",
    "state": "FL",
    "affiliate": "FOX",
    "dmasize": "37",
    "website": "www.wflx.com",
    "timezone": "EASTERN",
    "zip": "33401",
    "logo": "WFLX.png",
    "owner": "raycom",
    "popup": "1",
    "bkgColor": "light",
    "hidden": null,
    "arc_site_name": "wflx"
  },
  {
    "id": "70",
    "title": "KGMB-KHNL-KOGG-KHBC",
    "arcName": "khnl",
    "lat": "21.322701323",
    "lng": "-157.878067993",
    "img": "",
    "city": "Honolulu",
    "state": "HI",
    "affiliate": "CBS",
    "dmasize": "66",
    "website": "www.hawaiinewsnow.com",
    "timezone": "HAWAII",
    "zip": "96817",
    "logo": "KGMB.png",
    "owner": "raycom",
    "popup": "1",
    "bkgColor": "light",
    "hidden": null,
    "arc_site_name": ""
  }
]